{
"random location":
    [
        {
            "address":"Jalan Raya Gusti Ngurah Rai, Tuban, Kuta, Kabupaten Badung, Bali 80362",
            "id":"bandara",
            "lat":-8.7467357,
            "lng":115.1317835,
            "name":"Bandar Udara Internasional Ngurah Rai",
            "district":"Tuban",
            "city":"Badung"
        },
        {
            "address":"Jl. Raya Uluwatu, Ungasan, Kec. Kuta Sel., Kabupaten Badung, Bali 80364",
            "id":"tempat_wisata",
            "lat":-8.8104235,
            "lng":115.1500869,
            "name":"Garuda Wisnu Kencana Cultural Park",
            "district":"Kuta Selatan",
            "city":"Badung"
        },
        {
            "address":"Jl. Raya Puputan No.50, Renon, Kec. Denpasar Tim., Kota Denpasar, Bali 80234",
            "id":"restaurant",
            "lat":-8.6728685,
            "lng":115.217759,
            "name":"Warunk Upnormal Bali",
            "district":"Denpasar Timur",
            "city":"Denpasar"
        },
        {
            "address":"Jl. Raya Ubud, Ubud, Kecamatan Ubud, Kabupaten Gianyar, Bali 80571",
            "id":"museum",
            "lat":-8.5052036,
            "lng":115.2515173,
            "name":"Museum Puri Lukisan",
            "district":"Ubud",
            "city":"Gianyar"
        },
        {
            "address":"Jalan P.B. Sudirman, Dangin Puri Klod, Kec. Denpasar Bar., Kota Denpasar, Bali 80234",
            "id":"kampus",
            "lat":-8.6774423,
            "lng":115.2122498,
            "name":"Universitas Udayana, Kampus Sudirman",
            "district":"Denpasar Barat",
            "city":"Denpasar"
        }
    ]

}
